{"property_id":"12636359","name":"Golden Myanmar Guest House","address":{"line_1":"Lanmadaw, Main Road","line_2":"Bagan","city":"Nyaung-U","state_province_name":"Mandalay","postal_code":"11101","country_code":"MM"},"ratings":{"property":{"rating":"2.5","type":"Star"},"tripadvisor":{"rating":"3.5","count":87,"links":{"rating_image":{"method":"GET","href":"http://www.tripadvisor.com/img/cdsi/img2/ratings/traveler/3.5-39958-4.png"}}}},"location":{"coordinates":{"latitude":21.200613,"longitude":94.907161}},"phone":"95-9-2043192","fax":"95-9-2043192","category":{"id":1,"name":"Hotel"},"rank":37683,"business_model":{"expedia_collect":true,"property_collect":false},"dates":{"added":"2015-10-20T23:49:37.047Z","updated":"2018-10-02T19:55:19.345Z"}}
{"property_id":"8983998","name":"Hotel Tara Plage","address":{"line_1":"Commune Kribi 1er","city":"Kribi","country_code":"CM"},"ratings":{"property":{"rating":"2.0","type":"Star"},"tripadvisor":{"rating":"3.5","count":54,"links":{"rating_image":{"method":"GET","href":"http://www.tripadvisor.com/img/cdsi/img2/ratings/traveler/3.5-39958-4.png"}}}},"location":{"coordinates":{"latitude":2.935026,"longitude":9.909984}},"phone":"237-696-12 81 48","fax":"237-98-381979","category":{"id":1,"name":"Hotel"},"rank":69550,"business_model":{"expedia_collect":true,"property_collect":false},"dates":{"added":"2014-08-18T17:55:00.150Z","updated":"2018-10-01T20:06:28.471Z"}}
{"property_id":"9623284","name":"Gyokushoen Arai","address":{"line_1":"284-2, Toi","city":"Izu","postal_code":"410-3302","country_code":"JP"},"ratings":{"property":{"rating":"4.0","type":"Star"},"tripadvisor":{"rating":"3.5","count":68,"links":{"rating_image":{"method":"GET","href":"http://www.tripadvisor.com/img/cdsi/img2/ratings/traveler/3.5-39958-4.png"}}}},"location":{"coordinates":{"latitude":34.913967,"longitude":138.792038}},"phone":"81-558981000","category":{"id":20,"name":"Ryokan"},"rank":69550,"business_model":{"expedia_collect":true,"property_collect":false},"dates":{"added":"2016-09-28T14:09:40.153Z","updated":"2018-10-02T17:36:17.443Z"}}
{"property_id":"23809956","name":"Apartamento Tranquila Para 6 Personas en Cambrils","address":{"line_1":"AVENIDA Diputacion 85","city":"Cambrils","state_province_name":"Catalonia","postal_code":"43850","country_code":"ES"},"ratings":{"property":{"rating":"3.5","type":"Star"}},"location":{"coordinates":{"latitude":41.069238,"longitude":1.094199}},"phone":"34-977369015","category":{"id":16,"name":"Apartment"},"rank":72641,"business_model":{"expedia_collect":true,"property_collect":false},"dates":{"added":"2018-04-09T17:54:07.693Z","updated":"2018-10-04T17:50:47.660Z"}}
{"property_id":"4465080","name":"Kaya Mawa","address":{"line_1":"Lake Malawi","city":"Likoma Island","country_code":"MW"},"ratings":{"property":{"rating":"3.5","type":"Star"},"tripadvisor":{"rating":"5.0","count":201,"links":{"rating_image":{"method":"GET","href":"http://www.tripadvisor.com/img/cdsi/img2/ratings/traveler/5.0-39958-4.png"}}}},"location":{"coordinates":{"latitude":-12.091374,"longitude":34.718196}},"phone":"265-993-18359","fax":"265-993-18359","category":{"id":15,"name":"Lodge"},"rank":57085,"business_model":{"expedia_collect":true,"property_collect":false},"dates":{"added":"1995-01-01T05:00:00.000Z","updated":"2018-10-04T05:33:13.870Z"}}
{"property_id":"1646486","name":"Hotel Megha Sheraton","address":{"line_1":"53 / 1 Bazar Marg Old Rajinder Nagar","city":"New Delhi","state_province_name":"Delhi N.C.R","postal_code":"110060","country_code":"IN"},"ratings":{"property":{"rating":"2.5","type":"Star"},"tripadvisor":{"rating":"3.5","count":61,"links":{"rating_image":{"method":"GET","href":"http://www.tripadvisor.com/img/cdsi/img2/ratings/traveler/3.5-39958-4.png"}}}},"location":{"coordinates":{"latitude":28.643345,"longitude":77.186731}},"phone":"91-11-25788287","fax":"91-11-252432809","category":{"id":1,"name":"Hotel"},"rank":233314,"business_model":{"expedia_collect":true,"property_collect":false},"dates":{"added":"1995-01-01T05:00:00.000Z","updated":"2018-10-01T19:29:53.185Z"}}
{"property_id":"26707926","name":"Be Live Collection Punta Cana - Adults Only","address":{"line_1":"Punta Cana","city":"Punta Cana","state_province_name":"La Altagracia","country_code":"DO"},"ratings":{"property":{"rating":"4.0","type":"Star"}},"location":{"coordinates":{"latitude":18.648517,"longitude":-68.361402}},"phone":"1-809-5634848","fax":"1-809-5634848","category":{"id":1,"name":"Hotel"},"rank":69550,"business_model":{"expedia_collect":true,"property_collect":false},"dates":{"added":"2018-06-13T03:38:33.680Z","updated":"2018-10-05T04:47:19.858Z"}}
{"property_id":"23491700","name":"Honglilai Hotel Shenzhen","address":{"line_1":"Fuyong Avenue","city":"Shenzhen","state_province_name":"Guangdong","country_code":"CN"},"ratings":{"property":{"rating":"3.5","type":"Star"},"tripadvisor":{"rating":"4.0","count":1,"links":{"rating_image":{"method":"GET","href":"http://www.tripadvisor.com/img/cdsi/img2/ratings/traveler/4.0-39958-4.png"}}}},"location":{"coordinates":{"latitude":22.671704,"longitude":113.825809}},"phone":"86-75529979888","category":{"id":1,"name":"Hotel"},"rank":99999999,"business_model":{"expedia_collect":true,"property_collect":false},"dates":{"added":"2018-03-24T22:44:12.747Z","updated":"2018-10-07T08:20:53.944Z"}}
{"property_id":"18673336","name":"Blue Sky Condo","address":{"line_1":"1369/59, Petchakasem Road","city":"Cha-am","state_province_name":"Hua Hin","postal_code":"76120","country_code":"TH"},"ratings":{"property":{"rating":"3.0","type":"Star"}},"location":{"coordinates":{"latitude":12.651941,"longitude":99.954634}},"phone":"66-66-0812732097","fax":"66-66-0812732097","category":{"id":16,"name":"Apartment"},"rank":39137,"business_model":{"expedia_collect":true,"property_collect":false},"dates":{"added":"2017-05-12T04:44:47.140Z","updated":"2018-10-03T14:55:35.161Z"}}
{"property_id":"27548547","name":"Paradise Palms Resort 8963GCPIL - Four Bedroom Townhome","address":{"line_1":"8963 Candy Palm Road","city":"Kissimmee","state_province_code":"FL","state_province_name":"Florida","postal_code":"34747","country_code":"US"},"ratings":{"property":{"rating":"3.5","type":"Star"}},"location":{"coordinates":{"latitude":28.33651,"longitude":-81.64737}},"phone":"1-636-7364042","category":{"id":7,"name":"Condo"},"rank":99999999,"business_model":{"expedia_collect":true,"property_collect":false},"dates":{"added":"2018-08-13T18:52:35.818Z","updated":"2018-10-07T14:54:24.339Z"}}
